transforms:
- header:
    stamp:
      sec: 38
      nanosec: 763000000
    frame_id: camera1_left_camera_frame
  child_frame_id: camera1_imu_link
  transform:
    translation:
      x: -0.0020000000949949026
      y: -0.023061001673340797
      z: 0.00021700002253055573
    rotation:
      x: 0.007331032771617174
      y: 0.0038846342358738184
      z: -0.003126873169094324
      w: 0.9999606609344482
---
transforms:
- header:
    stamp:
      sec: 38
      nanosec: 765000000
    frame_id: camera2_left_camera_frame
  child_frame_id: camera2_imu_link
  transform:
    translation:
      x: -0.0020000000949949026
      y: -0.023061001673340797
      z: 0.00021700002253055573
    rotation:
      x: -0.006394712254405022
      y: -0.0023872507736086845
      z: 0.0043418374843895435
      w: 0.9999672174453735
---
transforms:
- header:
    stamp:
      sec: 1749716637
      nanosec: 722872953
    frame_id: odom
  child_frame_id: camera1_camera_link
  transform:
    translation:
      x: 0.0009306312128272334
      y: -0.00131865366314724
      z: 0.0004895957816127807
    rotation:
      x: -4.2975060675366086e-05
      y: 2.2830998702195744e-05
      z: 0.00023954324377382314
      w: 0.9999999701254635
---
transforms:
- header:
    stamp:
      sec: 38
      nanosec: 770000000
    frame_id: camera2_left_camera_frame
  child_frame_id: camera2_imu_link
  transform:
    translation:
      x: -0.0020000000949949026
      y: -0.023061001673340797
      z: 0.00021700002253055573
    rotation:
      x: -0.006394712254405022
      y: -0.0023872507736086845
      z: 0.0043418374843895435
      w: 0.9999672174453735
---
transforms:
- header:
    stamp:
      sec: 38
      nanosec: 787000000
    frame_id: camera1_left_camera_frame
  child_frame_id: camera1_imu_link
  transform:
    translation:
      x: -0.0020000000949949026
      y: -0.023061001673340797
      z: 0.00021700002253055573
    rotation:
      x: 0.007331032771617174
      y: 0.0038846342358738184
      z: -0.003126873169094324
      w: 0.9999606609344482
---
transforms:
- header:
    stamp:
      sec: 38
      nanosec: 789000000
    frame_id: camera1_left_camera_frame
  child_frame_id: camera1_imu_link
  transform:
    translation:
      x: -0.0020000000949949026
      y: -0.023061001673340797
      z: 0.00021700002253055573
    rotation:
      x: 0.007331032771617174
      y: 0.0038846342358738184
      z: -0.003126873169094324
      w: 0.9999606609344482
---
transforms:
- header:
    stamp:
      sec: 38
      nanosec: 890000000
    frame_id: map
  child_frame_id: odom
  transform:
    translation:
      x: 0.0
      y: 0.0
      z: 0.0
    rotation:
      x: 0.0
      y: 0.0
      z: 0.0
      w: 1.0
---
transforms:
- header:
    stamp:
      sec: 38
      nanosec: 891000000
    frame_id: map
  child_frame_id: odom
  transform:
    translation:
      x: 0.0
      y: 0.0
      z: 0.0
    rotation:
      x: 0.0
      y: 0.0
      z: 0.0
      w: 1.0
---
transforms:
- header:
    stamp:
      sec: 38
      nanosec: 792000000
    frame_id: camera1_left_camera_frame
  child_frame_id: camera1_imu_link
  transform:
    translation:
      x: -0.0020000000949949026
      y: -0.023061001673340797
      z: 0.00021700002253055573
    rotation:
      x: 0.007331032771617174
      y: 0.0038846342358738184
      z: -0.003126873169094324
      w: 0.9999606609344482
---
transforms:
- header:
    stamp:
      sec: 38
      nanosec: 792000000
    frame_id: camera1_left_camera_frame
  child_frame_id: camera1_imu_link
  transform:
    translation:
      x: -0.0020000000949949026
      y: -0.023061001673340797
      z: 0.00021700002253055573
    rotation:
      x: 0.007331032771617174
      y: 0.0038846342358738184
      z: -0.003126873169094324
      w: 0.9999606609344482
---
transforms:
- header:
    stamp:
      sec: 38
      nanosec: 894000000
    frame_id: map
  child_frame_id: odom
  transform:
    translation:
      x: 0.0
      y: 0.0
      z: 0.0
    rotation:
      x: 0.0
      y: 0.0
      z: 0.0
      w: 1.0
---
transforms:
- header:
    stamp:
      sec: 38
      nanosec: 794000000
    frame_id: camera1_left_camera_frame
  child_frame_id: camera1_imu_link
  transform:
    translation:
      x: -0.0020000000949949026
      y: -0.023061001673340797
      z: 0.00021700002253055573
    rotation:
      x: 0.007331032771617174
      y: 0.0038846342358738184
      z: -0.003126873169094324
      w: 0.9999606609344482
---
transforms:
- header:
    stamp:
      sec: 38
      nanosec: 795000000
    frame_id: camera1_left_camera_frame
  child_frame_id: camera1_imu_link
  transform:
    translation:
      x: -0.0020000000949949026
      y: -0.023061001673340797
      z: 0.00021700002253055573
    rotation:
      x: 0.007331032771617174
      y: 0.0038846342358738184
      z: -0.003126873169094324
      w: 0.9999606609344482
---
